[
  {
    "id": "1",
    "name": "GALANA KIANJA",
    "address": "Avaradrova avaratra",
    "city": "Ambatondrazaka",
    "lat": -17.8333,
    "lng": 48.4167,
    "phone": "+261340690377/+261343841290",
    "whatsapp": "+261340690377",
    "type": "Station Service",
    "services": ["Bouteille 9kg", "Bouteille 13kg"],
    "hours": "Lun-Sam 8h-18h"
  },
  {
    "id": "2",
    "name": "JOVENA ALAOTRA",
    "address": "Ambatondrazaka",
    "city": "Ambatondrazaka",
    "lat": -17.8333,
    "lng": 48.4167,
    "phone": "+261331564221/+261340155808",
    "whatsapp": "+261331564221",
    "type": "Station Service",
    "services": ["Bouteille 9kg", "Bouteille 13kg"],
    "hours": "Lun-Sam 8h-18h"
  },
  {
    "id": "3",
    "name": "JOVENA AMBATOLAONA",
    "address": "Ambatolaona",
    "city": "Ambatolaona",
    "lat": -18.2000,
    "lng": 48.5833,
    "phone": "+261340111737/+261343978051",
    "whatsapp": "+261340111737",
    "type": "Station Service",
    "services": ["Bouteille 9kg", "Bouteille 13kg"],
    "hours": "Lun-Sam 8h-18h"
  },
  {
    "id": "4",
    "name": "JOVENA AMPANOTOKANA RNA",
    "address": "Ampanotokana",
    "city": "Ampanotokana",
    "lat": -18.2000,
    "lng": 48.5833,
    "phone": "+261340893836",
    "whatsapp": "+261340893836",
    "type": "Station Service",
    "services": ["Bouteille 9kg", "Bouteille 13kg"],
    "hours": "Lun-Sam 8h-18h"
  },
  {
    "id": "5",
    "name": "JOVENA MIADANA",
    "address": "Ambatondrazaka",
    "city": "Ambohimandroso",
    "lat": -17.8333,
    "lng": 48.4167,
    "phone": "+261340430567/+261348580659",
    "whatsapp": "+261340430567",
    "type": "Station Service",
    "services": ["Bouteille 9kg", "Bouteille 13kg"],
    "hours": "Lun-Sam 8h-18h"
  },
  {
    "id": "6",
    "name": "JOVENA RAZAKA",
    "address": "Ambatondrazaka",
    "city": "Ambatondrazaka",
    "lat": -17.8333,
    "lng": 48.4167,
    "phone": "+261340720316/+261331116132/+261343698826/+261344920476",
    "whatsapp": "+261340720316",
    "type": "Station Service",
    "services": ["Bouteille 9kg", "Bouteille 13kg"],
    "hours": "Lun-Sam 8h-18h"
  },
  {
    "id": "7",
    "name": "JOVENA TANAMBE",
    "address": "Ambatondrazaka",
    "city": "Tanambe",
    "lat": -18.1500,
    "lng": 48.2500,
    "phone": "+261340685693",
    "whatsapp": "+261340685693",
    "type": "Station Service",
    "services": ["Bouteille 9kg", "Bouteille 13kg"],
    "hours": "Lun-Sam 8h-18h"
  },
  {
    "id": "8",
    "name": "Epicerie ex-PMU",
    "address": "Analavory",
    "city": "Analavory",
    "lat": -18.7167,
    "lng": 47.2333,
    "phone": "+261334299955",
    "whatsapp": "+261334299955",
    "type": "Épicerie",
    "services": ["Bouteille 9kg", "Kit Fatapera", "Détendeur"],
    "hours": "Lun-Sam 8h-18h"
  },
  {
    "id": "9",
    "name": "Epicerie MIHARY",
    "address": "Miarinarivo",
    "city": "Miarinarivo",
    "lat": -18.9500,
    "lng": 46.9000,
    "phone": "+261330359213",
    "whatsapp": "+261330359213",
    "type": "Épicerie",
    "services": ["Bouteille 9kg", "Kit Fatapera", "Détendeur"],
    "hours": "Lun-Sam 8h-18h"
  },
  {
    "id": "10",
    "name": "TSENA VAO",
    "address": "Ampitatafika",
    "city": "Ampitatafika",
    "lat": -18.9000,
    "lng": 47.4333,
    "phone": "+261332837831",
    "whatsapp": "+261332837831",
    "type": "Autres",
    "services": ["Bouteille 9kg"],
    "hours": "Lun-Sam 8h-18h"
  },
  {
    "id": "11",
    "name": "MINI MARKET JJB SHOP",
    "address": "Tsiroanomandidy",
    "city": "Tsiroanomandidy",
    "lat": -18.7667,
    "lng": 46.0500,
    "phone": "+261322698517/+261331630740",
    "whatsapp": "+261322698517",
    "type": "Épicerie",
    "services": ["Bouteille 9kg", "Kit Fatapera", "Détendeur"],
    "hours": "Lun-Sam 8h-18h"
  },
  {
    "id": "12",
    "name": "Quincaillerie A.C.S",
    "address": "Fenoarivo",
    "city": "Fenoarivo",
    "lat": -18.4333,
    "lng": 47.1833,
    "phone": "+261342627576",
    "whatsapp": "+261342627576",
    "type": "Quincaillerie",
    "services": ["Bouteille 9kg", "Détendeur", "Pack connectique"],
    "hours": "Lun-Sam 8h-18h"
  },
  {
    "id": "13",
    "name": "Quincaillerie de LA RN1",
    "address": "Ambatomirahavavy",
    "city": "Ambatomirahavavy",
    "lat": -18.9167,
    "lng": 47.5333,
    "phone": "+261331150936",
    "whatsapp": "+261331150936",
    "type": "Quincaillerie",
    "services": ["Bouteille 9kg", "Détendeur", "Pack connectique"],
    "hours": "Lun-Sam 8h-18h"
  },
  {
    "id": "14",
    "name": "Quincaillerie FITAHINA",
    "address": "Ampitatafika",
    "city": "Ampitatafika",
    "lat": -18.9000,
    "lng": 47.4333,
    "phone": "+261326414728",
    "whatsapp": "+261326414728",
    "type": "Quincaillerie",
    "services": ["Bouteille 9kg", "Détendeur", "Pack connectique"],
    "hours": "Lun-Sam 8h-18h"
  },
  {
    "id": "15",
    "name": "Quincaillerie Ny antsika",
    "address": "Imerintsiatosika",
    "city": "Imerintsiatosika",
    "lat": -19.0667,
    "lng": 47.1833,
    "phone": "+261330300713",
    "whatsapp": "+261330300713",
    "type": "Quincaillerie",
    "services": ["Bouteille 9kg", "Détendeur", "Pack connectique"],
    "hours": "Lun-Sam 8h-18h"
  },
  {
    "id": "16",
    "name": "GALANA AMBOARA",
    "address": "Imerintsiatosika",
    "city": "Imerintsiatosika",
    "lat": -19.0667,
    "lng": 47.1833,
    "phone": "+261345555223",
    "whatsapp": "+261345555223",
    "type": "Station Service",
    "services": ["Bouteille 9kg", "Bouteille 13kg"],
    "hours": "Lun-Sam 8h-18h"
  },
  {
    "id": "17",
    "name": "GALANA SAKAY",
    "address": "Sakay",
    "city": "Sakay",
    "lat": -18.9667,
    "lng": 46.2333,
    "phone": "+261344370324",
    "whatsapp": "+261344370324",
    "type": "Station Service",
    "services": ["Bouteille 9kg", "Bouteille 13kg"],
    "hours": "Lun-Sam 8h-18h"
  },
  {
    "id": "18",
    "name": "JOVENA ALAKAMISY",
    "address": "Tana",
    "city": "Alakamisy",
    "lat": -18.9137,
    "lng": 47.5236,
    "phone": "+261340540576/+261343013089",
    "whatsapp": "+261340540576",
    "type": "Station Service",
    "services": ["Bouteille 9kg", "Bouteille 13kg"],
    "hours": "Lun-Sam 8h-18h"
  },
  {
    "id": "19",
    "name": "JOVENA FARATSIHO",
    "address": "Faratsiho",
    "city": "Faratsiho",
    "lat": -19.4000,
    "lng": 46.9500,
    "phone": "+261348092591/+261345158808",
    "whatsapp": "+261348092591",
    "type": "Station Service",
    "services": ["Bouteille 9kg", "Bouteille 13kg"],
    "hours": "Lun-Sam 8h-18h"
  },
  {
    "id": "20",
    "name": "JOVENA TSI/DIDY",
    "address": "Tsiroanomandidy",
    "city": "Tsiroanomandidy",
    "lat": -18.7667,
    "lng": 46.0500,
    "phone": "+261343639852",
    "whatsapp": "+261343639852",
    "type": "Station Service",
    "services": ["Bouteille 9kg", "Bouteille 13kg"],
    "hours": "Lun-Sam 8h-18h"
  },
  {
    "id": "21",
    "name": "JOVENA TANIKELY",
    "address": "Anosizato",
    "city": "Anosizato",
    "lat": -18.9000,
    "lng": 47.3667,
    "phone": "+261341021774",
    "whatsapp": "+261341021774",
    "type": "Station Service",
    "services": ["Bouteille 9kg", "Bouteille 13kg"],
    "hours": "Lun-Sam 8h-18h"
  },
  {
    "id": "22",
    "name": "JOVENA ARIVONIMAMO",
    "address": "Arivonimamo",
    "city": "Arivonimamo",
    "lat": -19.0167,
    "lng": 47.1833,
    "phone": "+261341423400/+261346262416",
    "whatsapp": "+261341423400",
    "type": "Station Service",
    "services": ["Bouteille 9kg", "Bouteille 13kg"],
    "hours": "Lun-Sam 8h-18h"
  },
  {
    "id": "23",
    "name": "SHELL Ambatomirahavavy",
    "address": "Ambatomirahavavy",
    "city": "Ambatomirahavavy",
    "lat": -18.9167,
    "lng": 47.5333,
    "phone": "+261340501562",
    "whatsapp": "+261340501562",
    "type": "Station Service",
    "services": ["Bouteille 9kg", "Bouteille 13kg"],
    "hours": "Lun-Sam 8h-18h"
  },
  {
    "id": "24",
    "name": "SHELL IMAMO",
    "address": "Arivonimamo",
    "city": "Arivonimamo",
    "lat": -19.0167,
    "lng": 47.1833,
    "phone": "+261341779948",
    "whatsapp": "+261341779948",
    "type": "Station Service",
    "services": ["Bouteille 9kg", "Bouteille 13kg"],
    "hours": "Lun-Sam 8h-18h"
  },
  {
    "id": "25",
    "name": "SHELL LOHARANO",
    "address": "Tana",
    "city": "Ampitatafika",
    "lat": -18.9137,
    "lng": 47.5236,
    "phone": "+261347003030/+261340509300",
    "whatsapp": "+261347003030",
    "type": "Station Service",
    "services": ["Bouteille 9kg", "Bouteille 13kg"],
    "hours": "Lun-Sam 8h-18h"
  },
  {
    "id": "26",
    "name": "SHELL MANANGAREZA",
    "address": "Tana",
    "city": "Anosizato",
    "lat": -18.9137,
    "lng": 47.5236,
    "phone": "+261347003030/+261340509300",
    "whatsapp": "+261347003030",
    "type": "Station Service",
    "services": ["Bouteille 9kg", "Bouteille 13kg"],
    "hours": "Lun-Sam 8h-18h"
  },
  {
    "id": "27",
    "name": "Shop HARENA",
    "address": "Ampefy",
    "city": "Ampefy",
    "lat": -19.0500,
    "lng": 46.7167,
    "phone": "+261330375282",
    "whatsapp": "+261330375282",
    "type": "Autres",
    "services": ["Bouteille 9kg"],
    "hours": "Lun-Sam 8h-18h"
  },
  {
    "id": "28",
    "name": "EPI DOMINIQUE",
    "address": "Mahambo",
    "city": "Mahambo",
    "lat": -17.4833,
    "lng": 49.4333,
    "phone": "+261338071072",
    "whatsapp": "+261338071072",
    "type": "Autres",
    "services": ["Bouteille 9kg"],
    "hours": "Lun-Sam 8h-18h"
  },
  {
    "id": "29",
    "name": "EPICERIE FREDERIC",
    "address": "Morarano",
    "city": "Tamatave",
    "lat": -18.1492,
    "lng": 49.4023,
    "phone": "+26132264626953",
    "whatsapp": "+26132264626953",
    "type": "Épicerie",
    "services": ["Bouteille 9kg", "Kit Fatapera", "Détendeur"],
    "hours": "Lun-Sam 8h-18h"
  },
  {
    "id": "30",
    "name": "Mr ERIC ENOLA",
    "address": "Vatomandry",
    "city": "Vatomandry",
    "lat": -19.3333,
    "lng": 48.9833,
    "phone": "+261341573308/+261322391710",
    "whatsapp": "+261341573308",
    "type": "Autres",
    "services": ["Bouteille 9kg"],
    "hours": "Lun-Sam 8h-18h"
  },
  {
    "id": "31",
    "name": "Mr KENJY",
    "address": "Vatomandry",
    "city": "Vatomandry",
    "lat": -19.3333,
    "lng": 48.9833,
    "phone": "+2613227443488/+261331229718",
    "whatsapp": "+2613227443488",
    "type": "Autres",
    "services": ["Bouteille 9kg"],
    "hours": "Lun-Sam 8h-18h"
  },
  {
    "id": "32",
    "name": "BEMIRAY Market",
    "address": "Mangarano",
    "city": "Tamatave",
    "lat": -18.1492,
    "lng": 49.4023,
    "phone": "+261340756435",
    "whatsapp": "+261340756435",
    "type": "Épicerie",
    "services": ["Bouteille 9kg", "Kit Fatapera", "Détendeur"],
    "hours": "Lun-Sam 8h-18h"
  },
  {
    "id": "33",
    "name": "MARKET IDEAL",
    "address": "Bazar be",
    "city": "Tamatave",
    "lat": -18.1492,
    "lng": 49.4023,
    "phone": "+2613227725628",
    "whatsapp": "+2613227725628",
    "type": "Épicerie",
    "services": ["Bouteille 9kg", "Kit Fatapera", "Détendeur"],
    "hours": "Lun-Sam 8h-18h"
  },
  {
    "id": "34",
    "name": "MINI MARKET",
    "address": "Ampasimazava",
    "city": "Tamatave",
    "lat": -18.1492,
    "lng": 49.4023,
    "phone": "indisponible",
    "whatsapp": "indisponible",
    "type": "Épicerie",
    "services": ["Bouteille 9kg", "Kit Fatapera", "Détendeur"],
    "hours": "Lun-Sam 8h-18h"
  },
  {
    "id": "35",
    "name": "BE Eugème",
    "address": "Tanambao V",
    "city": "Tamatave",
    "lat": -18.1492,
    "lng": 49.4023,
    "phone": "indisponible",
    "whatsapp": "indisponible",
    "type": "Autres",
    "services": ["Bouteille 9kg"],
    "hours": "Lun-Sam 8h-18h"
  },
  {
    "id": "36",
    "name": "MAGASIN MAHAFAPO (Mr gerard)",
    "address": "Sainte Marie",
    "city": "Sainte Marie",
    "lat": -16.8989,
    "lng": 49.9036,
    "phone": "+2613220790624/+2613220516581/+261205740408/+2613220522669",
    "whatsapp": "+2613220790624",
    "type": "Autres",
    "services": ["Bouteille 9kg"],
    "hours": "Lun-Sam 8h-18h"
  },
  {
    "id": "37",
    "name": "MAGASIN PARADISA HAFAKELY",
    "address": "Anjoma",
    "city": "Tamatave",
    "lat": -18.1492,
    "lng": 49.4023,
    "phone": "+2613220509853",
    "whatsapp": "+2613220509853",
    "type": "Autres",
    "services": ["Bouteille 9kg"],
    "hours": "Lun-Sam 8h-18h"
  },
  {
    "id": "38",
    "name": "Magasin SOA FENO",
    "address": "Morafeno",
    "city": "Tamatave",
    "lat": -18.1492,
    "lng": 49.4023,
    "phone": "+2613220300466",
    "whatsapp": "+2613220300466",
    "type": "Autres",
    "services": ["Bouteille 9kg"],
    "hours": "Lun-Sam 8h-18h"
  },
  {
    "id": "39",
    "name": "MAGASIN SUPER PRICE",
    "address": "Tanambao V",
    "city": "Tamatave",
    "lat": -18.1492,
    "lng": 49.4023,
    "phone": "+261344309009",
    "whatsapp": "+261344309009",
    "type": "Autres",
    "services": ["Bouteille 9kg"],
    "hours": "Lun-Sam 8h-18h"
  },
  {
    "id": "40",
    "name": "QUINCALLERIE ANDRE BINASTORE",
    "address": "Mahanoro",
    "city": "Tamatave",
    "lat": -18.1492,
    "lng": 49.4023,
    "phone": "+2613222151345",
    "whatsapp": "+2613222151345",
    "type": "Quincaillerie",
    "services": ["Bouteille 9kg", "Détendeur", "Pack connectique"],
    "hours": "Lun-Sam 8h-18h"
  },
  {
    "id": "41",
    "name": "QUINCALLERIE BRICOEST",
    "address": "Angle Boulevard de la libération",
    "city": "Tamatave",
    "lat": -18.1492,
    "lng": 49.4023,
    "phone": "+261340566861",
    "whatsapp": "+261340566861",
    "type": "Quincaillerie",
    "services": ["Bouteille 9kg", "Détendeur", "Pack connectique"],
    "hours": "Lun-Sam 8h-18h"
  },
  {
    "id": "42",
    "name": "QUINCALLERIE SARAH",
    "address": "Foulpointe",
    "city": "Foulpointe",
    "lat": -17.6833,
    "lng": 49.5167,
    "phone": "indisponible",
    "whatsapp": "indisponible",
    "type": "Quincaillerie",
    "services": ["Bouteille 9kg", "Détendeur", "Pack connectique"],
    "hours": "Lun-Sam 8h-18h"
  },
  {
    "id": "43",
    "name": "QUINCALLERIE TSARAHAZO",
    "address": "Valpinson",
    "city": "Tamatave",
    "lat": -18.1492,
    "lng": 49.4023,
    "phone": "+261341179804",
    "whatsapp": "+261341179804",
    "type": "Quincaillerie",
    "services": ["Bouteille 9kg", "Détendeur", "Pack connectique"],
    "hours": "Lun-Sam 8h-18h"
  },
  {
    "id": "44",
    "name": "SUPER AUTO NINTANA",
    "address": "Ankirhlhry",
    "city": "Tamatave",
    "lat": -18.1492,
    "lng": 49.4023,
    "phone": "+2613224060274",
    "whatsapp": "+2613224060274",
    "type": "Autres",
    "services": ["Bouteille 9kg"],
    "hours": "Lun-Sam 8h-18h"
  },
  {
    "id": "45",
    "name": "TOUT POULE LE BATIMENT",
    "address": "Ampasimazava",
    "city": "Tamatave",
    "lat": -18.1492,
    "lng": 49.4023,
    "phone": "+261205331014",
    "whatsapp": "+261205331014",
    "type": "Autres",
    "services": ["Bouteille 9kg"],
    "hours": "Lun-Sam 8h-18h"
  },
  {
    "id": "46",
    "name": "STATION GALANA TSIMMSARAKA",
    "address": "Analankininina",
    "city": "Tamatave",
    "lat": -18.1492,
    "lng": 49.4023,
    "phone": "+261341111809",
    "whatsapp": "+261341111809",
    "type": "Station Service",
    "services": ["Bouteille 9kg", "Bouteille 13kg"],
    "hours": "Lun-Sam 8h-18h"
  },
  {
    "id": "47",
    "name": "STATION GALANA FENERIVE EST",
    "address": "Fénérive-Est",
    "city": "Fénérive-Est",
    "lat": -17.3667,
    "lng": 49.4167,
    "phone": "+261331289186",
    "whatsapp": "+261331289186",
    "type": "Station Service",
    "services": ["Bouteille 9kg", "Bouteille 13kg"],
    "hours": "Lun-Sam 8h-18h"
  },
  {
    "id": "48",
    "name": "STATION GALANA BRICKAVILLE",
    "address": "Brickaville",
    "city": "Brickaville",
    "lat": -18.8167,
    "lng": 49.0667,
    "phone": "+261331457595/+261333398661",
    "whatsapp": "+261331457595",
    "type": "Station Service",
    "services": ["Bouteille 9kg", "Bouteille 13kg"],
    "hours": "Lun-Sam 8h-18h"
  },
  {
    "id": "49",
    "name": "STATION GALANA BARKADIMY",
    "address": "Barikadimy",
    "city": "Tamatave",
    "lat": -18.1492,
    "lng": 49.4023,
    "phone": "+261341650339",
    "whatsapp": "+261341650339",
    "type": "Station Service",
    "services": ["Bouteille 9kg", "Bouteille 13kg"],
    "hours": "Lun-Sam 8h-18h"
  },
  {
    "id": "50",
    "name": "STATION GALANA RELAIS DU STADE",
    "address": "Bd Joffre",
    "city": "Tamatave",
    "lat": -18.1492,
    "lng": 49.4023,
    "phone": "+261346399106/+261345294484/+261205393206",
    "whatsapp": "+261346399106",
    "type": "Station Service",
    "services": ["Bouteille 9kg", "Bouteille 13kg"],
    "hours": "Lun-Sam 8h-18h"
  },
  {
    "id": "51",
    "name": "STATION JOYENNA AMBALAMANASY",
    "address": "Ambalamanasy",
    "city": "Tamatave",
    "lat": -18.1492,
    "lng": 49.4023,
    "phone": "+261342059432/+261341366320",
    "whatsapp": "+261342059432",
    "type": "Station Service",
    "services": ["Bouteille 9kg", "Bouteille 13kg"],
    "hours": "Lun-Sam 8h-18h"
  },
  {
    "id": "52",
    "name": "STATION JOYENNA JACARANDA",
    "address": "Bd Augagneur",
    "city": "Tamatave",
    "lat": -18.1492,
    "lng": 49.4023,
    "phone": "+261342059432/+261341506607",
    "whatsapp": "+261342059432",
    "type": "Station Service",
    "services": ["Bouteille 9kg", "Bouteille 13kg"],
    "hours": "Lun-Sam 8h-18h"
  },
  {
    "id": "53",
    "name": "STATION JOYENNA MANANGAREZA",
    "address": "Anjoma",
    "city": "Tamatave",
    "lat": -18.1492,
    "lng": 49.4023,
    "phone": "+261340758057",
    "whatsapp": "+261340758057",
    "type": "Station Service",
    "services": ["Bouteille 9kg", "Bouteille 13kg"],
    "hours": "Lun-Sam 8h-18h"
  },
  {
    "id": "54",
    "name": "STATION JOYENNA MANGARANO",
    "address": "Mangarano",
    "city": "Tamatave",
    "lat": -18.1492,
    "lng": 49.4023,
    "phone": "+2613220461108",
    "whatsapp": "+2613220461108",
    "type": "Station Service",
    "services": ["Bouteille 9kg", "Bouteille 13kg"],
    "hours": "Lun-Sam 8h-18h"
  },
  {
    "id": "55",
    "name": "STATION JOYENNA VOLOBE",
    "address": "Ambolomadinika",
    "city": "Tamatave",
    "lat": -18.1492,
    "lng": 49.4023,
    "phone": "+2613220461108",
    "whatsapp": "+2613220461108",
    "type": "Station Service",
    "services": ["Bouteille 9kg", "Bouteille 13kg"],
    "hours": "Lun-Sam 8h-18h"
  },
  {
    "id": "56",
    "name": "STATION JOYENNA ANTSAMPANANA",
    "address": "Antsampanana",
    "city": "Tamatave",
    "lat": -18.1492,
    "lng": 49.4023,
    "phone": "+2613229238672",
    "whatsapp": "+2613229238672",
    "type": "Station Service",
    "services": ["Bouteille 9kg", "Bouteille 13kg"],
    "hours": "Lun-Sam 8h-18h"
  },
  {
    "id": "57",
    "name": "STATION SHELL GARE ROUTIERE",
    "address": "Gare routière",
    "city": "Tamatave",
    "lat": -18.1492,
    "lng": 49.4023,
    "phone": "+261331457595/+261348055703",
    "whatsapp": "+261331457595",
    "type": "Station Service",
    "services": ["Bouteille 9kg", "Bouteille 13kg"],
    "hours": "Lun-Sam 8h-18h"
  },
  {
    "id": "58",
    "name": "STATION SHELL MANGARIVOTRA",
    "address": "Mangarivotra",
    "city": "Tamatave",
    "lat": -18.1492,
    "lng": 49.4023,
    "phone": "+2613224060274",
    "whatsapp": "+2613224060274",
    "type": "Station Service",
    "services": ["Bouteille 9kg", "Bouteille 13kg"],
    "hours": "Lun-Sam 8h-18h"
  },
  {
    "id": "59",
    "name": "STATION SHELL TANANDAVA",
    "address": "Tanandava",
    "city": "Tamatave",
    "lat": -18.1492,
    "lng": 49.4023,
    "phone": "+2613224060274",
    "whatsapp": "+2613224060274",
    "type": "Station Service",
    "services": ["Bouteille 9kg", "Bouteille 13kg"],
    "hours": "Lun-Sam 8h-18h"
  },
  {
    "id": "60",
    "name": "STATION SHELL FENERIVE EST",
    "address": "Fénérive-Est",
    "city": "Fénérive-Est",
    "lat": -17.3667,
    "lng": 49.4167,
    "phone": "+2613224060274",
    "whatsapp": "+2613224060274",
    "type": "Station Service",
    "services": ["Bouteille 9kg", "Bouteille 13kg"],
    "hours": "Lun-Sam 8h-18h"
  },
  {
    "id": "61",
    "name": "STATION SHELL PANGALANE",
    "address": "Ambalamanasy",
    "city": "Tamatave",
    "lat": -18.1492,
    "lng": 49.4023,
    "phone": "+261347003030/+261344796834",
    "whatsapp": "+261347003030",
    "type": "Station Service",
    "services": ["Bouteille 9kg", "Bouteille 13kg"],
    "hours": "Lun-Sam 8h-18h"
  },
  {
    "id": "62",
    "name": "STATION SHELL SOANIERANA IVONGO",
    "address": "Soanierana-ivongo",
    "city": "Soanierana-ivongo",
    "lat": -16.9167,
    "lng": 49.5833,
    "phone": "+2613224060274/+261334008739",
    "whatsapp": "+2613224060274",
    "type": "Station Service",
    "services": ["Bouteille 9kg", "Bouteille 13kg"],
    "hours": "Lun-Sam 8h-18h"
  },
  {
    "id": "63",
    "name": "Ets NASR",
    "address": "Cité jardin",
    "city": "Tamatave",
    "lat": -18.1492,
    "lng": 49.4023,
    "phone": "+261341799428",
    "whatsapp": "+261341799428",
    "type": "Autres",
    "services": ["Bouteille 9kg"],
    "hours": "Lun-Sam 8h-18h"
  },
  {
    "id": "64",
    "name": "KINI",
    "address": "Foulpointe",
    "city": "Foulpointe",
    "lat": -17.6833,
    "lng": 49.5167,
    "phone": "+261340324979",
    "whatsapp": "+261340324979",
    "type": "Autres",
    "services": ["Bouteille 9kg"],
    "hours": "Lun-Sam 8h-18h"
  },
  {
    "id": "65",
    "name": "MAC LUNE KAM RI FREDERIC",
    "address": "Mahanoro",
    "city": "Mahanoro",
    "lat": -19.9000,
    "lng": 48.8000,
    "phone": "+261341383535",
    "whatsapp": "+261341383535",
    "type": "Autres",
    "services": ["Bouteille 9kg"],
    "hours": "Lun-Sam 8h-18h"
  },
  {
    "id": "66",
    "name": "MAGASIN BEZAKA PASCAL",
    "address": "Mananara",
    "city": "Mananara",
    "lat": -16.1667,
    "lng": 49.7667,
    "phone": "+2613220557256",
    "whatsapp": "+2613220557256",
    "type": "Autres",
    "services": ["Bouteille 9kg"],
    "hours": "Lun-Sam 8h-18h"
  },
  {
    "id": "67",
    "name": "MAGASIN LINDA",
    "address": "Valpinson",
    "city": "Tamatave",
    "lat": -18.1492,
    "lng": 49.4023,
    "phone": "indisponible",
    "whatsapp": "indisponible",
    "type": "Autres",
    "services": ["Bouteille 9kg"],
    "hours": "Lun-Sam 8h-18h"
  },
  {
    "id": "68",
    "name": "Magasin ROYAL (EX MELIMELO)",
    "address": "Anjoma",
    "city": "Tamatave",
    "lat": -18.1492,
    "lng": 49.4023,
    "phone": "+261342402889",
    "whatsapp": "+261342402889",
    "type": "Autres",
    "services": ["Bouteille 9kg"],
    "hours": "Lun-Sam 8h-18h"
  },
  {
    "id": "69",
    "name": "MELLMELO SHOP",
    "address": "Tanambao V",
    "city": "Tamatave",
    "lat": -18.1492,
    "lng": 49.4023,
    "phone": "+261341290053",
    "whatsapp": "+261341290053",
    "type": "Autres",
    "services": ["Bouteille 9kg"],
    "hours": "Lun-Sam 8h-18h"
  },
  {
    "id": "70",
    "name": "ROYAL FISH",
    "address": "Anjoma",
    "city": "Tamatave",
    "lat": -18.1492,
    "lng": 49.4023,
    "phone": "+261346897509",
    "whatsapp": "+261346897509",
    "type": "Autres",
    "services": ["Bouteille 9kg"],
    "hours": "Lun-Sam 8h-18h"
  },
  {
    "id": "71",
    "name": "SOCIETE DOUNIA",
    "address": "Maroantsetra",
    "city": "Maroantsetra",
    "lat": -15.4333,
    "lng": 49.7333,
    "phone": "+2613220521322",
    "whatsapp": "+2613220521322",
    "type": "Autres",
    "services": ["Bouteille 9kg"],
    "hours": "Lun-Sam 8h-18h"
  },
  {
    "id": "72",
    "name": "TRANOMBAROTRA Manaja",
    "address": "Ambothjafy",
    "city": "Tamatave",
    "lat": -18.1492,
    "lng": 49.4023,
    "phone": "+2613224133335",
    "whatsapp": "+2613224133335",
    "type": "Autres",
    "services": ["Bouteille 9kg"],
    "hours": "Lun-Sam 8h-18h"
  },
  {
    "id": "73",
    "name": "TRANOMBAROTRA Manasoa",
    "address": "Mananara",
    "city": "Mananara",
    "lat": -16.1667,
    "lng": 49.7667,
    "phone": "indisponible",
    "whatsapp": "indisponible",
    "type": "Autres",
    "services": ["Bouteille 9kg"],
    "hours": "Lun-Sam 8h-18h"
  },
  {
    "id": "74",
    "name": "TRANOMBAROTRA SM8",
    "address": "Ambothjafy",
    "city": "Ampasimazava",
    "lat": -18.1492,
    "lng": 49.4023,
    "phone": "+261341150227",
    "whatsapp": "+261341150227",
    "type": "Autres",
    "services": ["Bouteille 9kg"],
    "hours": "Lun-Sam 8h-18h"
  },
  {
    "id": "75",
    "name": "ZAINABI SHOP",
    "address": "Tamatave",
    "city": "Tamatave",
    "lat": -18.1492,
    "lng": 49.4023,
    "phone": "indisponible",
    "whatsapp": "indisponible",
    "type": "Autres",
    "services": ["Bouteille 9kg"],
    "hours": "Lun-Sam 8h-18h"
  }
]